[{"_id":"5cd98670cdcdae0017612c88","date":"18.05.2019","url":"https://www.dynamo.ch/event/mine","name":"Mine","description":"Werk 21, 19:30 bis 23:45","location":{"GPS":{"lat":"47.3834046","long":"8.5371934"},"_id":"5cd98180c2b6a00018f65505","city":"Z√ºrich","name":"Dynamo","address":"Wasserwerkstrasse 21, 8006 Z√ºrich, Schweiz","__v":0},"__v":0},{"_id":"5cd98670cdcdae0017612c8b","date":"17.05.2019","url":"https://www.moods.club/de/programm/event/10182/carla-bley.html","name":"Carla Bley ","description":"Jazz, Beginn: 20:30 T√ºr√∂ffnung: 19:30 Preis 45.- CHF","location":{"GPS":{"lat":"47.3886794","long":"8.5173859"},"_id":"5cd98180c2b6a00018f6550d","city":"Z√ºrich","name":"Moods","address":"Schiffbauplatz, 8005 Z√ºrich, Schweiz","__v":0},"__v":0},{"_id":"5cd98670cdcdae0017612c8c","date":"17.05.2019","url":"https://www.mascotte.ch/nu/events/event_details/8891","name":"ASHER ROTH  (USA)","description":"¬´\"Asleep In The Bread Aisle\" 10-year anniversary tour¬ªsupport tbc, doors¬†19.00,¬†show¬†19.30","location":{"GPS":{"lat":"47.3663792","long":"8.5445846"},"_id":"5cd98180c2b6a00018f6550b","city":"Z√ºrich","name":"Mascotte","address":"Theaterstrasse 10, 8001 Z√ºrich, Schweiz","__v":0},"__v":0},{"_id":"5cd98670cdcdae0017612c8f","date":"18.05.2019","url":"http://hafenkneipe.info/di-06-dez-2016-northcote-can/","name":"KING ZEBRA (CH)","description":"T√ºr√∂ffnung 19h00 // Beginn 20h30 // Ende22h00 // CHF 15.-","location":{"GPS":{"lat":"47.3763376","long":"8.5310883"},"_id":"5cd98180c2b6a00018f65508","city":"Z√ºrich","name":"Hafenkneipe","address":"Milit√§rstrasse 12, 8004 Z√ºrich, Schweiz","__v":0},"__v":0},{"_id":"5cd98670cdcdae0017612c90","date":"17.05.2019","url":"http://gds.fm/programm/biscodall-robonaut-don-kashew-garcon-gaston","name":"Biscodall: Robonaut, Don Kashew & Gar√ßon Gaston","description":"","location":{"GPS":{"lat":"47.3772136","long":"8.5254738"},"_id":"5cd98180c2b6a00018f65510","city":"Z√ºrich","name":"Sender","address":"Kurzgasse 4, 8004 Z√ºrich, Schweiz","__v":0},"__v":0},{"_id":"5cd98670cdcdae0017612c91","date":"17.05.2019","url":"https://www.papiersaal.ch/events/737","name":"The Slow Readers Club (UK)","description":"Stadium Pop Rock, Doors: 19h00 / Show: 20h00","location":{"GPS":{"lat":"47.3581993","long":"8.5204826"},"_id":"5cd98180c2b6a00018f6550e","city":"Z√ºrich","name":"Papiersaal","address":"Kalanderpl. 6, 8045 Z√ºrich, Schweiz","__v":0},"__v":0},{"_id":"5cd98670cdcdae0017612c92","date":"19.05.2019","url":"https://rotefabrik.ch/de/programm.html#/events/5829","name":"Radio SUBMARINE","description":"live stream online broadcast by Yara Mekawei (19:00 Uhr, Eintritt: 0.00)","location":{"GPS":{"lat":"47.3435616","long":"8.5336404"},"_id":"5cd98180c2b6a00018f6550f","city":"Z√ºrich","name":"Rote Fabrik","address":"Seestrasse 395, 8038 Z√ºrich, Schweiz","__v":0},"__v":0},{"_id":"5cd98670cdcdae0017612c95","date":"16.05.2019","url":"https://www.mehrspur.ch/veranstaltungen/toni-music-lab-5","name":"Toni Music Lab","description":"Jazz Latin, 20H00","location":{"GPS":{"lat":"47.3915258","long":"8.5097185"},"_id":"5cd98180c2b6a00018f6550c","city":"Z√ºrich","name":"Mehrspur","address":"Toni-Areal, F√∂rrlibuckstrasse 109, 8005 Z√ºrich, Schweiz","__v":0},"__v":0},{"_id":"5cd98670cdcdae0017612c96","date":"18.05.2019","url":"https://exil.cl/programm/detail/108106","name":"Trash Pop","description":"","location":{"GPS":{"lat":"47.3883073","long":"8.517131"},"_id":"5cd98180c2b6a00018f65507","city":"Z√ºrich","name":"Exil","address":"Hardstrasse 245, 8005 Z√ºrich, Schweiz","__v":0},"__v":0},{"_id":"5cd98670cdcdae0017612c97","date":"16.05.2019","url":"https://www.helsinkiklub.ch/#event_767","name":"KUMO m&#xE4;anderthaler","description":"","location":{"GPS":{"lat":"47.3858815","long":"8.5159686"},"_id":"5cd98180c2b6a00018f65509","city":"Z√ºrich","name":"Helsinki","address":"Geroldstrasse 35, 8005 Z√ºrich, Schweiz","__v":0},"__v":0},{"_id":"5cd98670cdcdae0017612c9a","date":"18.05.2019","url":"https://www.papiersaal.ch/events/750","name":"Hit Fabrik","description":"70er, 80er, 90er, Doors: 22h00 / Show: 22h00","location":{"GPS":{"lat":"47.3581993","long":"8.5204826"},"_id":"5cd98180c2b6a00018f6550e","city":"Z√ºrich","name":"Papiersaal","address":"Kalanderpl. 6, 8045 Z√ºrich, Schweiz","__v":0},"__v":0},{"_id":"5cd98670cdcdae0017612c9b","date":"16.05.2019","url":"https://www.moods.club/de/programm/event/10502/adrian-younge-ali-shaheed-muhammad-a-tribe-called-quest.html","name":"Adrian Younge & Ali Shaheed Muhammad (A Tribe Called Quest) ¬´The Midnight Hour¬ª","description":"Soul, Beginn: 21:15 T√ºr√∂ffnung: 19:30 Preis 38.- CHF","location":{"GPS":{"lat":"47.3886794","long":"8.5173859"},"_id":"5cd98180c2b6a00018f6550d","city":"Z√ºrich","name":"Moods","address":"Schiffbauplatz, 8005 Z√ºrich, Schweiz","__v":0},"__v":0},{"_id":"5cd98670cdcdae0017612c98","date":"18.05.2019","url":"https://kaufleuten.ch/event/rompe-24/","name":"Rompe","description":"Latin & Hip Hop (CHF 30.00)","location":{"GPS":{"lat":"47.3716427","long":"8.5341738"},"_id":"5cd98180c2b6a00018f6550a","city":"Z√ºrich","name":"Kaufleuten","address":"Pelikanpl. 18, 8001 Z√ºrich, Schweiz","__v":0},"__v":0},{"_id":"5cd98670cdcdae0017612c9c","date":"18.05.2019","url":"http://gds.fm/programm/delinquent-network-de-0","name":"Delinquent Network (DE)","description":"","location":{"GPS":{"lat":"47.3772136","long":"8.5254738"},"_id":"5cd98180c2b6a00018f65510","city":"Z√ºrich","name":"Sender","address":"Kurzgasse 4, 8004 Z√ºrich, Schweiz","__v":0},"__v":0},{"_id":"5cda71fc0ab8330017e498b5","date":"20.05.2019","url":"https://exil.cl/programm/detail/108142","name":"MONTAGS 755: NIK B√ÑRTSCH‚ÄôS RONIN","description":"","location":{"GPS":{"lat":"47.3883073","long":"8.517131"},"_id":"5cd98180c2b6a00018f65507","city":"Z√ºrich","name":"Exil","address":"Hardstrasse 245, 8005 Z√ºrich, Schweiz","__v":0},"__v":0},{"_id":"5cda71fc0ab8330017e498b6","date":"18.05.2019","url":"https://www.dynamo.ch/event/dreadnoughts","name":"The Dreadnoughts","description":"SAAL, 19:00 bis 23:00","location":{"GPS":{"lat":"47.3834046","long":"8.5371934"},"_id":"5cd98180c2b6a00018f65505","city":"Z√ºrich","name":"Dynamo","address":"Wasserwerkstrasse 21, 8006 Z√ºrich, Schweiz","__v":0},"__v":0},{"_id":"5cda71fc0ab8330017e498b7","date":"17.05.2019","url":"https://kaufleuten.ch/event/zrichs-grsste-singleparty-2/","name":"Z√ºrichs gr√∂sste Singleparty","description":"Im Mai liebt Liebe in der Luft (CHF 19.00)","location":{"GPS":{"lat":"47.3716427","long":"8.5341738"},"_id":"5cd98180c2b6a00018f6550a","city":"Z√ºrich","name":"Kaufleuten","address":"Pelikanpl. 18, 8001 Z√ºrich, Schweiz","__v":0},"__v":0},{"_id":"5cda71fc0ab8330017e498b8","date":"20.05.2019","url":"https://www.moods.club/de/programm/event/10522/stefanie-kunckler-ymonos.html","name":"Stefanie Kunckler Ymonos ","description":"Jazz, Beginn: 20:30 T√ºr√∂ffnung: 19:30 Preis 30.- CHF","location":{"GPS":{"lat":"47.3886794","long":"8.5173859"},"_id":"5cd98180c2b6a00018f6550d","city":"Z√ºrich","name":"Moods","address":"Schiffbauplatz, 8005 Z√ºrich, Schweiz","__v":0},"__v":0},{"_id":"5cdb610c8a225e0017478127","date":"17.05.2019","url":"https://www.residentadvisor.net/events/1257164","name":"Sauvage","description":"Lineup: Tightill, Rapkreation, Dein Alibi, Punani, Stecito, El Vago, jaLLa, Yeshe & Qontra, DJ Hp76, Ace of Diamonds","location":{"GPS":{"lat":"52.535005","long":"13.4501257"},"_id":"5cdaaba27262070017b6a581","city":"Berlin","name":"Mensch Meier","address":"Storkower Str. 121, 10407 Berlin","__v":0},"__v":0},{"_id":"5cdb610c8a225e0017478129","date":"17.05.2019","url":"https://www.residentadvisor.net/events/1261503","name":"Salsa N Bass Number 666","description":"Lineup: *La Vecina, *Bony Selector, *Madame Pegante, *sKare, *Migz, *Ronald Davila, *Beatxo","location":{"GPS":{"lat":"52.4806032","long":"13.4306613"},"_id":"5cdaabd27262070017b6a583","city":"Berlin","name":"Loophole","address":"Boddinstra√üe 60, 12053 Berlin","__v":0},"__v":0},{"_id":"5cdb610c8a225e0017478130","date":"21.05.2019","url":"https://kaufleuten.ch/event/costa-del-soul-120/","name":"Costa del Soul","description":"RnB & HipHop mit DJ 1000 Skillz (CHF 15.00)","location":{"GPS":{"lat":"47.3716427","long":"8.5341738"},"_id":"5cd98180c2b6a00018f6550a","city":"Z√ºrich","name":"Kaufleuten","address":"Pelikanpl. 18, 8001 Z√ºrich, Schweiz","__v":0},"__v":0},{"_id":"5cdb610c8a225e0017478131","date":"21.05.2019","url":"https://www.mehrspur.ch/veranstaltungen/joscha-schraff-trio-jam-night","name":"Joscha Schraff Trio + Jam Night","description":"Jazz, 20H00","location":{"GPS":{"lat":"47.3915258","long":"8.5097185"},"_id":"5cd98180c2b6a00018f6550c","city":"Z√ºrich","name":"Mehrspur","address":"Toni-Areal, F√∂rrlibuckstrasse 109, 8005 Z√ºrich, Schweiz","__v":0},"__v":0},{"_id":"5cdb610c8a225e0017478132","date":"21.05.2019","url":"https://www.stall6.ch/programm/detail/stall-6-aussenbar-geoeffnet-4887","name":"Aussenbar ge√∂ffnet","description":"Ab: 15.00","location":{"GPS":{"lat":"47.3748365","long":"8.5325065"},"_id":"5cd98180c2b6a00018f65511","city":"Z√ºrich","name":"Stall 6","address":"Gessnerallee 8, 8001 Z√ºrich, Schweiz","__v":0},"__v":0},{"_id":"5cdb7624e6df570017e7a40a","date":"20.05.2019","url":"https://www.residentadvisor.net/events/1247995","name":"House of Waxx","description":"Lineup: Globus, John Osborn, Langenberg, Elie Eidelman","location":{"GPS":{"lat":"52.5106063","long":"13.421006"},"_id":"5cd99af93b160500179d5179","city":"Berlin","name":"Tresor","address":"K√∂penicker Str. 70, 10179 Berlin","__v":0},"__v":0},{"_id":"5cd98670cdcdae0017612c9e","date":"17.05.2019","url":"https://www.stall6.ch/programm/detail/lauter-festival-11-lauter-festival-4792","name":"11. Lauter Festival","description":"Eintritt frei! Ab: 20.00","location":{"GPS":{"lat":"47.3748365","long":"8.5325065"},"_id":"5cd98180c2b6a00018f65511","city":"Z√ºrich","name":"Stall 6","address":"Gessnerallee 8, 8001 Z√ºrich, Schweiz","__v":0},"__v":0},{"_id":"5cd98670cdcdae0017612c9f","date":"19.05.2019","url":"https://www.dynamo.ch/event/samael","name":"SAMAEL","description":"SAAL, 19:30","location":{"GPS":{"lat":"47.3834046","long":"8.5371934"},"_id":"5cd98180c2b6a00018f65505","city":"Z√ºrich","name":"Dynamo","address":"Wasserwerkstrasse 21, 8006 Z√ºrich, Schweiz","__v":0},"__v":0},{"_id":"5cd98670cdcdae0017612ca2","date":"16.05.2019","url":"https://exil.cl/programm/detail/107972","name":"MELODIESINFONIE & FRIENDS LIVE ‚Äì Album Release Show","description":"","location":{"GPS":{"lat":"47.3883073","long":"8.517131"},"_id":"5cd98180c2b6a00018f65507","city":"Z√ºrich","name":"Exil","address":"Hardstrasse 245, 8005 Z√ºrich, Schweiz","__v":0},"__v":0},{"_id":"5cd98670cdcdae0017612ca1","date":"19.05.2019","url":"http://www.ellokal.ch/?lang=de&details=855","name":"11. Lauter Festival","description":"Beginn:  Uhr, Eintritt: frei","location":{"GPS":{"lat":"47.3834224","long":"8.5306273"},"_id":"5cd98180c2b6a00018f65506","city":"Z√ºrich","name":"El Lokal","address":"Gessnerallee 11, 8001 Z√ºrich, Schweiz","__v":0},"__v":0},{"_id":"5cd98670cdcdae0017612ca0","date":"16.05.2019","url":"http://gds.fm/programm/studio-gds-kneubuehler-live-la-grande-deception","name":"Studio GDS: Kneub√ºhler LIVE: La Grande Deception","description":"","location":{"GPS":{"lat":"47.3772136","long":"8.5254738"},"_id":"5cd98180c2b6a00018f65510","city":"Z√ºrich","name":"Sender","address":"Kurzgasse 4, 8004 Z√ºrich, Schweiz","__v":0},"__v":0},{"_id":"5cd98670cdcdae0017612ca5","date":"19.05.2019","url":"https://www.helsinkiklub.ch/#event_825","name":"Aad Hollander Trio from Hell mit g&#xE4;sten h&#xFC;pftanzen und joy","description":"Bar¬†20¬†Uhr / Trio zum ersten¬†21¬†Uhr","location":{"GPS":{"lat":"47.3858815","long":"8.5159686"},"_id":"5cd98180c2b6a00018f65509","city":"Z√ºrich","name":"Helsinki","address":"Geroldstrasse 35, 8005 Z√ºrich, Schweiz","__v":0},"__v":0},{"_id":"5cd98670cdcdae0017612ca4","date":"17.05.2019","url":"https://www.helsinkiklub.ch/#event_762","name":"Hyperculte new album &quot;Massif Occidental&quot; -- Genf im H&#xE4;uschen","description":"offen t√ºr¬†20¬†Uhr / Show¬†21:30¬†Uhr","location":{"GPS":{"lat":"47.3858815","long":"8.5159686"},"_id":"5cd98180c2b6a00018f65509","city":"Z√ºrich","name":"Helsinki","address":"Geroldstrasse 35, 8005 Z√ºrich, Schweiz","__v":0},"__v":0},{"_id":"5cd98670cdcdae0017612ca6","date":"17.05.2019","url":"https://www.mehrspur.ch/veranstaltungen/arbajo-jairus-them-lovers","name":"Arbajo Jairus & Them Lovers","description":"Jazz Rap, 20H30","location":{"GPS":{"lat":"47.3915258","long":"8.5097185"},"_id":"5cd98180c2b6a00018f6550c","city":"Z√ºrich","name":"Mehrspur","address":"Toni-Areal, F√∂rrlibuckstrasse 109, 8005 Z√ºrich, Schweiz","__v":0},"__v":0},{"_id":"5cd98670cdcdae0017612ca3","date":"18.05.2019","url":"https://rotefabrik.ch/de/programm.html#/events/4839","name":"Duane Stephenson & Jah-Lil","description":"Boss Hi-Fi (21:00 Uhr, Eintritt: 35.00)","location":{"GPS":{"lat":"47.3435616","long":"8.5336404"},"_id":"5cd98180c2b6a00018f6550f","city":"Z√ºrich","name":"Rote Fabrik","address":"Seestrasse 395, 8038 Z√ºrich, Schweiz","__v":0},"__v":0},{"_id":"5cd98670cdcdae0017612ca8","date":"18.05.2019","url":"https://www.stall6.ch/programm/detail/lauter-festival-11-lauter-festival-4795","name":"11. Lauter Festival","description":"Eintritt frei! Ab: 20.00","location":{"GPS":{"lat":"47.3748365","long":"8.5325065"},"_id":"5cd98180c2b6a00018f65511","city":"Z√ºrich","name":"Stall 6","address":"Gessnerallee 8, 8001 Z√ºrich, Schweiz","__v":0},"__v":0},{"_id":"5cd98670cdcdae0017612ca9","date":"17.05.2019","url":"https://kaufleuten.ch/event/kaufhouse-17052019/","name":"Kaufhouse presents David Morales","description":"Househits wie in alten Zeiten.  (CHF 25.00)","location":{"GPS":{"lat":"47.3716427","long":"8.5341738"},"_id":"5cd98180c2b6a00018f6550a","city":"Z√ºrich","name":"Kaufleuten","address":"Pelikanpl. 18, 8001 Z√ºrich, Schweiz","__v":0},"__v":0},{"_id":"5cd98670cdcdae0017612caa","date":"16.05.2019","url":"https://www.helsinkiklub.ch/#event_801","name":"DJ Moonlagoon in 80 Songs um die Welt","description":"immer noch offen¬†22:30¬†Uhr","location":{"GPS":{"lat":"47.3858815","long":"8.5159686"},"_id":"5cd98180c2b6a00018f65509","city":"Z√ºrich","name":"Helsinki","address":"Geroldstrasse 35, 8005 Z√ºrich, Schweiz","__v":0},"__v":0},{"_id":"5cd98670cdcdae0017612cab","date":"18.05.2019","url":"https://www.moods.club/de/programm/event/10528/tropical-disco.html","name":"Tropical Disco ","description":"Tropical-Urban-Fuzion, Beginn: 23:00 T√ºr√∂ffnung: 23:00 Preis 15.- CHF","location":{"GPS":{"lat":"47.3886794","long":"8.5173859"},"_id":"5cd98180c2b6a00018f6550d","city":"Z√ºrich","name":"Moods","address":"Schiffbauplatz, 8005 Z√ºrich, Schweiz","__v":0},"__v":0},{"_id":"5cd98670cdcdae0017612cac","date":"16.05.2019","url":"https://www.mascotte.ch/nu/events/event_details/8911","name":"LOOK MUM NO COMPUTER (UK)","description":"support tbc, doors¬†19.00,¬†show¬†19.30","location":{"GPS":{"lat":"47.3663792","long":"8.5445846"},"_id":"5cd98180c2b6a00018f6550b","city":"Z√ºrich","name":"Mascotte","address":"Theaterstrasse 10, 8001 Z√ºrich, Schweiz","__v":0},"__v":0},{"_id":"5cd98670cdcdae0017612cad","date":"18.05.2019","url":"https://kaufleuten.ch/event/amour-fou-2/","name":"Amour Fou | Deuxi√®me √©dition","description":"It's a queer thing! (CHF 20.00)","location":{"GPS":{"lat":"47.3716427","long":"8.5341738"},"_id":"5cd98180c2b6a00018f6550a","city":"Z√ºrich","name":"Kaufleuten","address":"Pelikanpl. 18, 8001 Z√ºrich, Schweiz","__v":0},"__v":0},{"_id":"5cd98670cdcdae0017612cae","date":"16.05.2019","url":"https://www.dynamo.ch/event/frittenbude-rote-sonne-tour-2019","name":"Frittenbude - Rote Sonne Tour 2019","description":", 19:30","location":{"GPS":{"lat":"47.3834046","long":"8.5371934"},"_id":"5cd98180c2b6a00018f65505","city":"Z√ºrich","name":"Dynamo","address":"Wasserwerkstrasse 21, 8006 Z√ºrich, Schweiz","__v":0},"__v":0},{"_id":"5cd98670cdcdae0017612caf","date":"18.05.2019","url":"https://www.mehrspur.ch/veranstaltungen/extrafish-3","name":"Extrafish","description":"Balkan-Beatz Elektronisch Reggae Dub, 21H00","location":{"GPS":{"lat":"47.3915258","long":"8.5097185"},"_id":"5cd98180c2b6a00018f6550c","city":"Z√ºrich","name":"Mehrspur","address":"Toni-Areal, F√∂rrlibuckstrasse 109, 8005 Z√ºrich, Schweiz","__v":0},"__v":0},{"_id":"5cd98670cdcdae0017612cb0","date":"17.05.2019","url":"https://kaufleuten.ch/event/kaufhouse-17052019/","name":"Kaufhouse presents David Morales","description":"Househits wie in alten Zeiten.  (CHF 25.00)","location":{"GPS":{"lat":"47.3716427","long":"8.5341738"},"_id":"5cd98180c2b6a00018f6550a","city":"Z√ºrich","name":"Kaufleuten","address":"Pelikanpl. 18, 8001 Z√ºrich, Schweiz","__v":0},"__v":0},{"_id":"5cd98670cdcdae0017612cb1","date":"18.05.2019","url":"http://www.ellokal.ch/?lang=de&details=854","name":"11. Lauter Festival","description":"Beginn:  Uhr, Eintritt: frei","location":{"GPS":{"lat":"47.3834224","long":"8.5306273"},"_id":"5cd98180c2b6a00018f65506","city":"Z√ºrich","name":"El Lokal","address":"Gessnerallee 11, 8001 Z√ºrich, Schweiz","__v":0},"__v":0},{"_id":"5cd98670cdcdae0017612cb3","date":"18.05.2019","url":"https://www.helsinkiklub.ch/#event_812","name":"DJ Sarasin &amp; Sarasin","description":"immer noch offen¬†23:30¬†Uhr","location":{"GPS":{"lat":"47.3858815","long":"8.5159686"},"_id":"5cd98180c2b6a00018f65509","city":"Z√ºrich","name":"Helsinki","address":"Geroldstrasse 35, 8005 Z√ºrich, Schweiz","__v":0},"__v":0},{"_id":"5cd98670cdcdae0017612cb5","date":"18.05.2019","url":"https://rotefabrik.ch/de/programm.html#/events/3594","name":"Die Trommel passt sich zornig an","description":"Musik- und Sprachperformance zur anarchistischen Utopie Gustav Landauers (20:00 Uhr, Eintritt: CHF 20.00)","location":{"GPS":{"lat":"47.3435616","long":"8.5336404"},"_id":"5cd98180c2b6a00018f6550f","city":"Z√ºrich","name":"Rote Fabrik","address":"Seestrasse 395, 8038 Z√ºrich, Schweiz","__v":0},"__v":0},{"_id":"5cd98670cdcdae0017612cb6","date":"17.05.2019","url":"https://exil.cl/programm/detail/107946","name":"Abgesagt ‚Äì CR7Z","description":"","location":{"GPS":{"lat":"47.3883073","long":"8.517131"},"_id":"5cd98180c2b6a00018f65507","city":"Z√ºrich","name":"Exil","address":"Hardstrasse 245, 8005 Z√ºrich, Schweiz","__v":0},"__v":0},{"_id":"5cd98670cdcdae0017612cb7","date":"19.05.2019","url":"https://www.moods.club/de/programm/event/10472/-traxsjoegaertner-.html","name":"( (( ((( traxsj√∂g√§rtner ))) )) ) Carte Blanche Lukas Traxel","description":"Jazz, Beginn: 19:00 T√ºr√∂ffnung: 18:00 Preis 30.- CHF","location":{"GPS":{"lat":"47.3886794","long":"8.5173859"},"_id":"5cd98180c2b6a00018f6550d","city":"Z√ºrich","name":"Moods","address":"Schiffbauplatz, 8005 Z√ºrich, Schweiz","__v":0},"__v":0},{"_id":"5cd99b883b160500179d517a","date":"18.05.2019","url":"https://www.mehrspur.ch/veranstaltungen/mundial-beats","name":"Mundial Beatz","description":"Balkan-Beatz Elektronisch Latin Reggae Dub World, 23H00","location":{"GPS":{"lat":"47.3915258","long":"8.5097185"},"_id":"5cd98180c2b6a00018f6550c","city":"Z√ºrich","name":"Mehrspur","address":"Toni-Areal, F√∂rrlibuckstrasse 109, 8005 Z√ºrich, Schweiz","__v":0},"__v":0},{"_id":"5cd99b883b160500179d517b","date":"18.05.2019","url":"https://exil.cl/programm/detail/107554","name":"NEWTON FAULKNER","description":"","location":{"GPS":{"lat":"47.3883073","long":"8.517131"},"_id":"5cd98180c2b6a00018f65507","city":"Z√ºrich","name":"Exil","address":"Hardstrasse 245, 8005 Z√ºrich, Schweiz","__v":0},"__v":0},{"_id":"5cd99b883b160500179d517c","date":"18.05.2019","url":"https://www.moods.club/de/programm/event/10399/liniker-e-os-caramelows.html","name":"Liniker E Os Caramelows ","description":"Afro-Soul do Brasil, Beginn: 20:30 T√ºr√∂ffnung: 19:30 Preis 38.- CHF","location":{"GPS":{"lat":"47.3886794","long":"8.5173859"},"_id":"5cd98180c2b6a00018f6550d","city":"Z√ºrich","name":"Moods","address":"Schiffbauplatz, 8005 Z√ºrich, Schweiz","__v":0},"__v":0},{"_id":"5cd99b883b160500179d517d","date":"17.05.2019","url":"https://www.mehrspur.ch/veranstaltungen/mixtape-10","name":"Mixtape","description":"Rap Soul, 23H00","location":{"GPS":{"lat":"47.3915258","long":"8.5097185"},"_id":"5cd98180c2b6a00018f6550c","city":"Z√ºrich","name":"Mehrspur","address":"Toni-Areal, F√∂rrlibuckstrasse 109, 8005 Z√ºrich, Schweiz","__v":0},"__v":0},{"_id":"5cda71fc0ab8330017e498b9","date":"20.05.2019","url":"https://www.papiersaal.ch/events/733","name":"Literaturclub","description":"Literatur, Doors: 19h00 / Show: 19h45","location":{"GPS":{"lat":"47.3581993","long":"8.5204826"},"_id":"5cd98180c2b6a00018f6550e","city":"Z√ºrich","name":"Papiersaal","address":"Kalanderpl. 6, 8045 Z√ºrich, Schweiz","__v":0},"__v":0},{"_id":"5cda71fc0ab8330017e498ba","date":"20.05.2019","url":"http://www.ellokal.ch/?lang=de&details=853","name":"Hank Shizzoe","description":"Beginn: 20 Uhr, Eintritt: CHF 35.‚Äì","location":{"GPS":{"lat":"47.3834224","long":"8.5306273"},"_id":"5cd98180c2b6a00018f65506","city":"Z√ºrich","name":"El Lokal","address":"Gessnerallee 11, 8001 Z√ºrich, Schweiz","__v":0},"__v":0},{"_id":"5cda71fc0ab8330017e498bb","date":"20.05.2019","url":"https://www.dynamo.ch/event/tear-them-down","name":"Tear Them Down","description":"Werk 21, 19:30 bis 23:30","location":{"GPS":{"lat":"47.3834046","long":"8.5371934"},"_id":"5cd98180c2b6a00018f65505","city":"Z√ºrich","name":"Dynamo","address":"Wasserwerkstrasse 21, 8006 Z√ºrich, Schweiz","__v":0},"__v":0},{"_id":"5cda839014eeac001784c673","date":"19.05.2019","url":"https://www.residentadvisor.net/events/1248938","name":"Sunday Selection","description":"Lineup: MYSTIC ROOTS & FRIENDS","location":{"GPS":{"lat":"52.5072755","long":"13.4526039"},"_id":"5cd99ce73b160500179d5181","city":"Berlin","name":"Cassiopeia","address":"Revaler Str. 99, 10245 Berlin","__v":0},"__v":0},{"_id":"5cda839014eeac001784c674","date":"19.05.2019","url":"https://www.residentadvisor.net/events/1247013","name":"Sasomo with UCR & [me:us] - John Monkman/ HRRSN/ Lexer/ Lotte Ahoi/ Jake the Rapper/ Sven Dohse","description":"Lineup: Chopstick & Johnjon, John Monkman, HRRSN, Lexer, ‚ßë‚ßë‚ßë‚ßë‚ßë‚ßë‚ßë‚ßë‚ßë‚ßë‚ßë‚ßë‚ßë‚ßë‚ßë‚ßë‚ßë‚ßë‚ßë‚ßë‚ßë‚ßë, Urban Cosmonaut Radio with, Lotte Ahoi, Vruno, Burntale, ‚ßë‚ßë‚ßë‚ßë‚ßë‚ßë‚ßë‚ßë‚ßë‚ßë‚ßë‚ßë‚ßë‚ßë‚ßë‚ßë‚ßë‚ßë‚ßë‚ßë‚ßë‚ßë, Sunday from 12:00 with, Mutlu, miAs, Mary Quo, Jake the Rapper, Maximono, Sven Dohse, Marcus Meinhardt, ‚ïê‚ïê‚ïê‚ïê‚ïê‚ïê‚ïê, Gottlieb Scheppert, Warte:mal","location":{"GPS":{"lat":"52.512225","long":"13.4234087"},"_id":"5cda7b6532e07600174f6f6c","city":"Berlin","name":"Kater Blau","address":"Holzmarktstra√üe 25, 10243 Berlin","__v":0},"__v":0},{"_id":"5cda839014eeac001784c677","date":"19.05.2019","url":"https://www.residentadvisor.net/events/1250594","name":"Rituals by aufnahme + wiedergabe #003","description":"Lineup: Die Selektion LIVE, Ludi Oktokreuz, Marble Slave LIVE, Minuit Machine LIVE, OCD, Philipp Strobel","location":{"GPS":{"lat":"52.5072497","long":"13.4490049"},"_id":"5cd99a8d3b160500179d5177","city":"Berlin","name":"Suicide Circus","address":"Warschauer Br√ºcke, Revaler Stra√üe 99 Zugang √ºber, 10245 Berlin","__v":0},"__v":0},{"_id":"5cda839014eeac001784c678","date":"19.05.2019","url":"https://www.residentadvisor.net/events/1243983","name":"Lazy.Sunday mit Herr Schabernack","description":"Lineup: Herr Schabernack","location":{"GPS":{"lat":"52.5164332","long":"13.4618348"},"_id":"5cd99bd13b160500179d517f","city":"Berlin","name":"Minimal Bar","address":"Rigaer Str. 31, 10247 Berlin","__v":0},"__v":0},{"_id":"5cda839014eeac001784c67d","date":"19.05.2019","url":"https://www.residentadvisor.net/events/1263810","name":"Brouqade & Friends","description":"Lineup: Christopher Ledger, Bruno Curtis, Alessia Ceruti, Christian Kowalski, Dana Ruh","location":{"GPS":{"lat":"52.4967723","long":"13.4482481"},"_id":"5cd99ab23b160500179d5178","city":"Berlin","name":"Club der Visionaere","address":"Am Flutgraben, 12435 Berlin","__v":0},"__v":0},{"_id":"5cda9524db4af60017407fd8","date":"17.05.2019","url":"https://exil.cl/programm/detail/108495","name":"Lights Out","description":"","location":{"GPS":{"lat":"47.3883073","long":"8.517131"},"_id":"5cd98180c2b6a00018f65507","city":"Z√ºrich","name":"Exil","address":"Hardstrasse 245, 8005 Z√ºrich, Schweiz","__v":0},"__v":0},{"_id":"5cda9524db4af60017407fd9","date":"17.05.2019","url":"https://www.mehrspur.ch/veranstaltungen/ray-drma-2","name":"Ray Drma","description":"Soul, 22H00","location":{"GPS":{"lat":"47.3915258","long":"8.5097185"},"_id":"5cd98180c2b6a00018f6550c","city":"Z√ºrich","name":"Mehrspur","address":"Toni-Areal, F√∂rrlibuckstrasse 109, 8005 Z√ºrich, Schweiz","__v":0},"__v":0},{"_id":"5cda9524db4af60017407fda","date":"18.05.2019","url":"https://www.helsinkiklub.ch/#event_810","name":"Pussywarmers une fois ohne Reka","description":"Bar¬†20¬†Uhr / 1. set¬†21¬†Uhr","location":{"GPS":{"lat":"47.3858815","long":"8.5159686"},"_id":"5cd98180c2b6a00018f65509","city":"Z√ºrich","name":"Helsinki","address":"Geroldstrasse 35, 8005 Z√ºrich, Schweiz","__v":0},"__v":0},{"_id":"5cda9fb08a5d5c0017a1ad75","date":"17.05.2019","url":"https://www.residentadvisor.net/events/1257070","name":"Infuse at CDV","description":"Lineup: Rossko, Rich NxT, Reiss","location":{"GPS":{"lat":"52.4967723","long":"13.4482481"},"_id":"5cd99ab23b160500179d5178","city":"Berlin","name":"Club der Visionaere","address":"Am Flutgraben, 12435 Berlin","__v":0},"__v":0},{"_id":"5cda9fb08a5d5c0017a1ad76","date":"17.05.2019","url":"https://www.residentadvisor.net/events/1258229","name":"Luvthang All Night Long","description":"Lineup: Vinc, Kev, Jesse","location":{"GPS":{"lat":"52.4993209","long":"13.4167987"},"_id":"5cda7b5932e07600174f6f6b","city":"Berlin","name":"Paloma","address":"Skalitzer Str. 135, 10999 Berlin","__v":0},"__v":0},{"_id":"5cda9fb08a5d5c0017a1ad77","date":"17.05.2019","url":"https://www.residentadvisor.net/events/1258606","name":"Carte Blanche Feat. Marc Schneider All Night","description":"Lineup: Marc Schneider","location":{"GPS":{"lat":"52.4993209","long":"13.4167987"},"_id":"5cda7b5932e07600174f6f6b","city":"Berlin","name":"Paloma","address":"Skalitzer Str. 135, 10999 Berlin","__v":0},"__v":0},{"_id":"5cda9fb08a5d5c0017a1ad78","date":"17.05.2019","url":"https://www.residentadvisor.net/events/1242241","name":"Gutzeit - Hidden Empire / Sarah Wild / Tobi Dei / Brothers / Lou Gatha","description":"Lineup: Tobi Dei, Hidden Empire, Stefanie Raschke, Sarah Wild, ‚ïê‚ïê‚ïê‚ïê‚ïê‚ïê‚ïê‚ïê‚ïê‚ïê‚ïê‚ïê‚ïê‚ïê, Lou Gatha, Brothers","location":{"GPS":{"lat":"52.512225","long":"13.4234087"},"_id":"5cda7b6532e07600174f6f6c","city":"Berlin","name":"Kater Blau","address":"Holzmarktstra√üe 25, 10243 Berlin","__v":0},"__v":0},{"_id":"5cda9fb08a5d5c0017a1ad79","date":"17.05.2019","url":"https://www.residentadvisor.net/events/1264697","name":"S√ºsse Damenwahl","description":"Lineup: Farina Fertig, Anna Schreit, Ell¬°, FELIDAE","location":{"GPS":{"lat":"52.5085628","long":"13.4588592"},"_id":"5cd99ca03b160500179d5180","city":"Berlin","name":"S√ºss War Gestern","address":"W√ºhlischstra√üe 43, 10245 Berlin","__v":0},"__v":0},{"_id":"5cda9fb08a5d5c0017a1ad7a","date":"17.05.2019","url":"https://www.residentadvisor.net/events/1253596","name":"Tresor.Klubnacht with Perc, Skudge (Live), Max Durante","description":"Lineup: Globus, Skudge, Kenneth Christiansen, Pharaoh & Yogg, J.C, Tresor, Perc, Max Durante, Ausgang, New Frames","location":{"GPS":{"lat":"52.5106063","long":"13.421006"},"_id":"5cd99af93b160500179d5179","city":"Berlin","name":"Tresor","address":"K√∂penicker Str. 70, 10179 Berlin","__v":0},"__v":0},{"_id":"5cda9fb08a5d5c0017a1ad7b","date":"17.05.2019","url":"https://www.residentadvisor.net/events/1250320","name":"TRY Land with Nick Curly, The Reason Y, Schlepp Geist, DJ Lion, Daniel Jaeger & More","description":"Lineup: Nick Curly, The Reason Y, Schlepp Geist LIVE, DJ Lion, Daniel Jaeger b2b Joseph Disco, Diogo Accioly","location":{"GPS":{"lat":"52.5010558","long":"13.4452521"},"_id":"5cd999d83b160500179d5176","city":"Berlin","name":"Watergate","address":"Falckensteinstra√üe 49, 10997 Berlin","__v":0},"__v":0},{"_id":"5cda9fb08a5d5c0017a1ad7c","date":"17.05.2019","url":"https://www.residentadvisor.net/events/1238275","name":"Strumfrei mit Sa≈°a & Freunde","description":"Lineup: Sa≈°a & Freunde","location":{"GPS":{"lat":"52.5164332","long":"13.4618348"},"_id":"5cd99bd13b160500179d517f","city":"Berlin","name":"Minimal Bar","address":"Rigaer Str. 31, 10247 Berlin","__v":0},"__v":0},{"_id":"5cda9fb08a5d5c0017a1ad7d","date":"17.05.2019","url":"https://www.residentadvisor.net/events/1222721","name":"Version","description":"Lineup: Piezo, Hops, Orson, Clara","location":{"GPS":{"lat":"52.5104995","long":"13.4180309"},"_id":"5cda7b3a32e07600174f6f6a","city":"Berlin","name":"OHM","address":"K√∂penicker Str. 70, 10179 Berlin","__v":0},"__v":0},{"_id":"5cda9fb08a5d5c0017a1ad7e","date":"17.05.2019","url":"https://www.residentadvisor.net/events/1252753","name":"Double Impact","description":"Lineup: TANITH, WOLLEXDP, ALESSIO PAGLIAROLI, MUTE8","location":{"GPS":{"lat":"52.5072497","long":"13.4490049"},"_id":"5cd99a8d3b160500179d5177","city":"Berlin","name":"Suicide Circus","address":"Warschauer Br√ºcke, Revaler Stra√üe 99 Zugang √ºber, 10245 Berlin","__v":0},"__v":0},{"_id":"5cdab84cd0eb21001718e5d7","date":"18.05.2019","url":"https://www.residentadvisor.net/events/1253386","name":"Acht Jahre Griessmuehle","description":"Lineup: Derrick May, Scan 7, Works Unit, Anetha, H√©ctor Oaks, Baba Stiltz, David Vunk, Subjected, Lokier, Inhalt Der Nacht, Samo DJ, Animistic Beliefs, Franklin de Costa & Mareena, Gian & Stojche, Eliott Litrowski, Vivian Koch, Dietroiter, Handmade, Axiom, Franz Scala, Mejle & ElectroDon, Tham, Acierate, Darwin, Prantel & Forsberg, Esposito & Michael Nadje, Xiorro, scheib","location":{"GPS":{"lat":"52.4760543","long":"13.4552053"},"_id":"5cdaac187262070017b6a585","city":"Berlin","name":"Griessmuehle","address":"Sonnenallee 221, 12059 Berlin","__v":0},"__v":0},{"_id":"5cdab84cd0eb21001718e5d8","date":"18.05.2019","url":"https://www.residentadvisor.net/events/1247013","name":"Sasomo with UCR & [me:us] - John Monkman/ HRRSN/ Lexer/ Lotte Ahoi/ Jake the Rapper/ Sven Dohse","description":"Lineup: Chopstick & Johnjon, John Monkman, HRRSN, Lexer, ‚ßë‚ßë‚ßë‚ßë‚ßë‚ßë‚ßë‚ßë‚ßë‚ßë‚ßë‚ßë‚ßë‚ßë‚ßë‚ßë‚ßë‚ßë‚ßë‚ßë‚ßë‚ßë, Urban Cosmonaut Radio with, Lotte Ahoi, Vruno, Burntale, ‚ßë‚ßë‚ßë‚ßë‚ßë‚ßë‚ßë‚ßë‚ßë‚ßë‚ßë‚ßë‚ßë‚ßë‚ßë‚ßë‚ßë‚ßë‚ßë‚ßë‚ßë‚ßë, Sunday from 12:00 with, Mutlu, miAs, Mary Quo, Jake the Rapper, Maximono, Sven Dohse, Marcus Meinhardt, ‚ïê‚ïê‚ïê‚ïê‚ïê‚ïê‚ïê, Gottlieb Scheppert, Warte:mal, What else is going on?, Sunday um 6pm Wild Wild West Bingo with Harriet, Malte und Musik von Oliver Klostermann","location":{"GPS":{"lat":"52.512225","long":"13.4234087"},"_id":"5cda7b6532e07600174f6f6c","city":"Berlin","name":"Kater Blau","address":"Holzmarktstra√üe 25, 10243 Berlin","__v":0},"__v":0},{"_id":"5cdab84cd0eb21001718e5d9","date":"18.05.2019","url":"https://www.residentadvisor.net/events/1250925","name":"Klubnacht","description":"Lineup: Surgeon, Adlas, Answer Code Request, DVS1, Eric Cloutier, Francois X, Mike Parker, ROD, Andr√© Galluzzi, Dane, Margaret Dygas, Nick H√∂ppner, Pearson Sound, Ryan Elliott, Tama Sumo","location":{"GPS":{"lat":"52.5111157","long":"13.4408427"},"_id":"5cdaac2f7262070017b6a586","city":"Berlin","name":"Berghain | Panorama Bar | S√§ule","address":"Am Wriezener Bahnhof, 10243 Berlin","__v":0},"__v":0},{"_id":"5cdab84cd0eb21001718e5da","date":"18.05.2019","url":"https://www.residentadvisor.net/events/1229258","name":"Berlin Beach Festival 2019","description":"Lineup: ‚ñµ ALEXANDER SCHIELA, ‚ñµ NATT A REGULAR GUY, ‚ñµ SAME BUT DIFFERENT, ‚ñµ SO WHAT?!","location":{"GPS":{"lat":"52.4978644","long":"13.4515841"},"_id":"5cdaab847262070017b6a57f","city":"Berlin","name":"Badeschiff","address":"Eichenstra√üe 4, 12435 Berlin","__v":0},"__v":0},{"_id":"5cdab84cd0eb21001718e5db","date":"18.05.2019","url":"https://www.residentadvisor.net/events/1229653","name":"Disconnekt Garden Opening","description":"Lineup: Thomas P Heckmann, Makaton , Projekt Gestalten, Asymptote, Chami, Cadih, Cristian Marras, D. Casanova","location":{"GPS":{"lat":"52.4977386","long":"13.4495911"},"_id":"5cdaac487262070017b6a587","city":"Berlin","name":"[ips…ô]","address":"Vor dem Schlesischen Tor 2, 10997 Berlin","__v":0},"__v":0},{"_id":"5cdab84cd0eb21001718e5dc","date":"18.05.2019","url":"https://www.residentadvisor.net/events/1249092","name":"Buttons - Garden of Fruits","description":"Lineup: Derrick Carter, Robbie Leslie, Kiddy Smile, Tim Taylor, more TBA","location":{"GPS":{"lat":"52.5025046","long":"13.464188"},"_id":"5cdaac6e7262070017b6a588","city":"Berlin","name":"://about blank","address":"Markgrafendamm 24c, 10245 Berlin","__v":0},"__v":0},{"_id":"5cdab84cd0eb21001718e5dd","date":"18.05.2019","url":"https://www.residentadvisor.net/events/1238276","name":"Visitor.Area mit Doug Bass & Freunde","description":"Lineup: Doug Bass & Freunde","location":{"GPS":{"lat":"52.5164332","long":"13.4618348"},"_id":"5cd99bd13b160500179d517f","city":"Berlin","name":"Minimal Bar","address":"Rigaer Str. 31, 10247 Berlin","__v":0},"__v":0},{"_id":"5cdab84cd0eb21001718e5de","date":"18.05.2019","url":"https://www.residentadvisor.net/events/1249889","name":"Golosa","description":"Lineup: Heartthrob, Overland, Marum, Joseph Diel, KH38, 2FARO, Mashyno","location":{"GPS":{"lat":"52.5072497","long":"13.4490049"},"_id":"5cd99a8d3b160500179d5177","city":"Berlin","name":"Suicide Circus","address":"Warschauer Br√ºcke, Revaler Stra√üe 99 Zugang √ºber, 10245 Berlin","__v":0},"__v":0},{"_id":"5cdab84cd0eb21001718e5df","date":"18.05.2019","url":"https://www.residentadvisor.net/events/1264698","name":"S√ºsse Damenwahl","description":"Lineup: NIPPL, Mean Deen, Zusan","location":{"GPS":{"lat":"52.5085628","long":"13.4588592"},"_id":"5cd99ca03b160500179d5180","city":"Berlin","name":"S√ºss War Gestern","address":"W√ºhlischstra√üe 43, 10245 Berlin","__v":0},"__v":0},{"_id":"5cdab84cd0eb21001718e5e0","date":"18.05.2019","url":"https://www.residentadvisor.net/events/1257613","name":"Renate with Andre Bratten, Christopher Rau, Innershades","description":"Lineup: ANDRE BRATTEN, CHRISTOPHER RAU, INNERSHADES, MARLON HOFFSTADT, Bobby, S RUSTON, SABINE HOFFMANN, Bianca Lexis, IVAN BERKO, Die Schnelle Nummer","location":{"GPS":{"lat":"52.4974491","long":"13.4629963"},"_id":"5cdaac927262070017b6a58a","city":"Berlin","name":"Salon Zur Wilden Renate","address":"Alt-Stralau 70, 10245 Berlin","__v":0},"__v":0},{"_id":"5cdab84cd0eb21001718e5e1","date":"18.05.2019","url":"https://www.residentadvisor.net/events/1262713","name":"Kris Baha, Bryan Kessler, Hoff","description":"Lineup: Kris Baha, Bryan Kessler, Hoff","location":{"GPS":{"lat":"52.493037","long":"13.3850587"},"_id":"5cdaab907262070017b6a580","city":"Berlin","name":"Zur Klappe","address":"Yorckstra√üe 2, 10965 Berlin","__v":0},"__v":0},{"_id":"5cdab84cd0eb21001718e5e2","date":"18.05.2019","url":"https://www.residentadvisor.net/events/1253597","name":"Tresor Meets Deep In The Box","description":"Lineup: Globus, Deep In The Box, ZIP, Afriqua, Barbara Preisinger, Tresor, Sunil Sharpe, Binny, Christopher Joseph, Marcus","location":{"GPS":{"lat":"52.5106063","long":"13.421006"},"_id":"5cd99af93b160500179d5179","city":"Berlin","name":"Tresor","address":"K√∂penicker Str. 70, 10179 Berlin","__v":0},"__v":0},{"_id":"5cdab84cd0eb21001718e5e3","date":"18.05.2019","url":"https://www.residentadvisor.net/events/1253335","name":"Power House - The Magic Jonzon Edition","description":"Lineup: Jonzon, Finn Johannsen","location":{"GPS":{"lat":"52.4993209","long":"13.4167987"},"_id":"5cda7b5932e07600174f6f6b","city":"Berlin","name":"Paloma","address":"Skalitzer Str. 135, 10999 Berlin","__v":0},"__v":0},{"_id":"5cdab84cd0eb21001718e5e4","date":"18.05.2019","url":"https://www.residentadvisor.net/events/1262916","name":"All Night with Sarah Satorii & Alex Montolio","description":"Lineup: House/Techno-Floor, Sarah Satorii, Old School Hip Hop-Floor/80s, Alex Montolio","location":{"GPS":{"lat":"52.4756705","long":"13.4199459"},"_id":"5cdaab357262070017b6a57b","city":"Berlin","name":"Promenaden Eck","address":"Schillerpromenade 11, 12049 Berlin","__v":0},"__v":0},{"_id":"5cdab84cd0eb21001718e5e5","date":"18.05.2019","url":"https://www.residentadvisor.net/events/1245207","name":"9 Jahre Knutschen","description":"Lineup: üëÑ Daniel Steinberg, üëÑ Philip Bader, üëÑ Gunnar Stiller, üëÑ Nils Ohrmann, üëÑ Boy Next Door, üëÑ Sailor Rave, üëÑ Milk and Coffee, üëÑ Alex Kiefer","location":{"GPS":{"lat":"52.5026749","long":"13.4055995"},"_id":"5cdaac817262070017b6a589","city":"Berlin","name":"Ritter Butzke","address":"Ritterstra√üe 26, 10969 Berlin","__v":0},"__v":0},{"_id":"5cdab84cd0eb21001718e5e6","date":"18.05.2019","url":"https://www.residentadvisor.net/events/1247422","name":"MyGarage","description":"Lineup: Doug Bass, Malinka, Chris El Raton","location":{"GPS":{"lat":"52.5164332","long":"13.4618348"},"_id":"5cd99bd13b160500179d517f","city":"Berlin","name":"Minimal Bar","address":"Rigaer Str. 31, 10247 Berlin","__v":0},"__v":0},{"_id":"5cdab84cd0eb21001718e5e7","date":"18.05.2019","url":"https://www.residentadvisor.net/events/1257339","name":"Disco Bizarre","description":"Lineup: Heidy.P, David Silver, Billy Idle","location":{"GPS":{"lat":"52.5112726","long":"13.4147455"},"_id":"5cdaabc77262070017b6a582","city":"Berlin","name":"KitKatClub","address":"K√∂penicker Str. 76, 10179 Berlin","__v":0},"__v":0},{"_id":"5cdab84cd0eb21001718e5e8","date":"18.05.2019","url":"https://www.residentadvisor.net/events/1241407","name":"Luis Junior","description":"Lineup: ","location":{"GPS":{"lat":"52.4929551","long":"13.4890514"},"_id":"5cdaabe67262070017b6a584","city":"Berlin","name":"Sisyphos","address":"Hauptstra√üe 15, 10317 Berlin","__v":0},"__v":0},{"_id":"5cdab84cd0eb21001718e5e9","date":"18.05.2019","url":"https://www.residentadvisor.net/events/1247781","name":"Goa Liebe","description":"Lineup: Mondero, Match Hoffman, 2Contexx & alGee","location":{"GPS":{"lat":"52.4655752","long":"13.3839535"},"_id":"5cdaab557262070017b6a57d","city":"Berlin","name":"Insomnia","address":"Alt-Tempelhof 17-19, 12099 Berlin","__v":0},"__v":0},{"_id":"5cdab84cd0eb21001718e5ea","date":"18.05.2019","url":"https://www.residentadvisor.net/events/1257012","name":"RISE Meets The Djoon Experience with Shimza, Floyd Lavine, John Agesilas and More","description":"Lineup: Shimza, Floyd Lavine, John Agesilas, Afshin, Jamiie, Dede, Eddieboi","location":{"GPS":{"lat":"52.5010558","long":"13.4452521"},"_id":"5cd999d83b160500179d5176","city":"Berlin","name":"Watergate","address":"Falckensteinstra√üe 49, 10997 Berlin","__v":0},"__v":0},{"_id":"5cdab84cd0eb21001718e5eb","date":"18.05.2019","url":"https://www.residentadvisor.net/events/1261504","name":"BIV Records presents: Series One Compilation Vol2","description":"Lineup: Bataille, Al Pagoda, Airaboi, Thomas Hoffman","location":{"GPS":{"lat":"52.4806032","long":"13.4306613"},"_id":"5cdaabd27262070017b6a583","city":"Berlin","name":"Loophole","address":"Boddinstra√üe 60, 12053 Berlin","__v":0},"__v":0},{"_id":"5cdab84cd0eb21001718e5ec","date":"18.05.2019","url":"https://www.residentadvisor.net/events/1262724","name":"Mess","description":"Lineup: Bloody Mary, Bella Sarris, Lucinee, Hyperaktivist","location":{"GPS":{"lat":"52.5104995","long":"13.4180309"},"_id":"5cda7b3a32e07600174f6f6a","city":"Berlin","name":"OHM","address":"K√∂penicker Str. 70, 10179 Berlin","__v":0},"__v":0},{"_id":"5cdab84cd0eb21001718e5ed","date":"18.05.2019","url":"https://www.residentadvisor.net/events/1255536","name":"UKG all Night with Enchanted Rhythms","description":"Lineup: Enchanted Rhythms","location":{"GPS":{"lat":"52.4993209","long":"13.4167987"},"_id":"5cda7b5932e07600174f6f6b","city":"Berlin","name":"Paloma","address":"Skalitzer Str. 135, 10999 Berlin","__v":0},"__v":0},{"_id":"5cdab84cd0eb21001718e5ee","date":"18.05.2019","url":"https://www.residentadvisor.net/events/1250352","name":"Rare Vinyl Dreams For Lovers and Friends","description":"Lineup: DJ M.PATH.IQ","location":{"GPS":{"lat":"52.4756705","long":"13.4199459"},"_id":"5cdaab627262070017b6a57e","city":"Berlin","name":"Solar","address":"Schillerpromenade 11, 12049 Berlin","__v":0},"__v":0},{"_id":"5cdae984feaf5b001742b8fc","date":"19.05.2019","url":"https://www.stall6.ch/programm/detail/sorry-we-are-closed-heute-leider-geschlossen-4907","name":"HEUTE LEIDER GESCHLOSSEN","description":"Ab: 00.00","location":{"GPS":{"lat":"47.3748365","long":"8.5325065"},"_id":"5cd98180c2b6a00018f65511","city":"Z√ºrich","name":"Stall 6","address":"Gessnerallee 8, 8001 Z√ºrich, Schweiz","__v":0},"__v":0},{"_id":"5cdb610c8a225e0017478120","date":"17.05.2019","url":"https://www.residentadvisor.net/events/1254087","name":"Paper with Mella Dee, Seb Wildblood, Imogen & More","description":"Lineup: Epikur, Hade, b2b Niklas Wandt, Hidden Spheres, Imogen, Lolsnake, b2b Panasia Girl, Mareike Bautz, Mella Dee, RIP Swirl, Seb Wildblood, DJ 2nd Floor b2b Menki","location":{"GPS":{"lat":"52.4974491","long":"13.4629963"},"_id":"5cdaac927262070017b6a58a","city":"Berlin","name":"Salon Zur Wilden Renate","address":"Alt-Stralau 70, 10245 Berlin","__v":0},"__v":0},{"_id":"5cdb610c8a225e0017478123","date":"17.05.2019","url":"https://www.residentadvisor.net/events/1250923","name":"Finest Running Back","description":"Lineup: Tiger & Woods, Deetron, Gerd Janson, Matthew Styles","location":{"GPS":{"lat":"52.5111157","long":"13.4408427"},"_id":"5cdaac2f7262070017b6a586","city":"Berlin","name":"Berghain | Panorama Bar | S√§ule","address":"Am Wriezener Bahnhof, 10243 Berlin","__v":0},"__v":0},{"_id":"5cdb610c8a225e0017478124","date":"17.05.2019","url":"https://www.residentadvisor.net/events/1250351","name":"Deep and Soulful Swedish House Beats","description":"Lineup: DJ THE HENRIK MANEUVER","location":{"GPS":{"lat":"52.4756705","long":"13.4199459"},"_id":"5cdaab627262070017b6a57e","city":"Berlin","name":"Solar","address":"Schillerpromenade 11, 12049 Berlin","__v":0},"__v":0},{"_id":"5cdb610c8a225e0017478125","date":"17.05.2019","url":"https://www.residentadvisor.net/events/1257699","name":"The Mystic Rose Meets You","description":"Lineup: LIVE, Hatikwa, Xonica Rec, Berlin","location":{"GPS":{"lat":"52.5112726","long":"13.4147455"},"_id":"5cdaabc77262070017b6a582","city":"Berlin","name":"KitKatClub","address":"K√∂penicker Str. 76, 10179 Berlin","__v":0},"__v":0},{"_id":"5cdb610c8a225e0017478126","date":"17.05.2019","url":"https://www.residentadvisor.net/events/1254147","name":"Heal Yourself and Move","description":"Lineup: Levente, Iron Curtis, Cromie","location":{"GPS":{"lat":"52.493037","long":"13.3850587"},"_id":"5cdaab907262070017b6a580","city":"Berlin","name":"Zur Klappe","address":"Yorckstra√üe 2, 10965 Berlin","__v":0},"__v":0},{"_id":"5cdb610c8a225e001747812f","date":"21.05.2019","url":"https://rotefabrik.ch/de/programm.html#/events/4682","name":"BRUTUS","description":"& ASBEST (21:00 Uhr, Eintritt: 25.00)","location":{"GPS":{"lat":"47.3435616","long":"8.5336404"},"_id":"5cd98180c2b6a00018f6550f","city":"Z√ºrich","name":"Rote Fabrik","address":"Seestrasse 395, 8038 Z√ºrich, Schweiz","__v":0},"__v":0},{"_id":"5cdab84cd0eb21001718e5ef","date":"18.05.2019","url":"https://www.residentadvisor.net/events/1257167","name":"Big Bang 4 Mami Wata","description":"Lineup: 2 Girls 1 Club, Drosssel Mami Wata Friend, Amalgam Collective & Friends, Az√∫car Escort *live vocals, Mami Wata Friends, Bambule Groej, Bambule BLN, Barnaschnatz b2b Robims Dey, fernab, Bodypoet, Brigade *live, KELLER/Majestic Casual, Elcuchillo, Rebellion der Tr√§umer, fevela b2b Schwalheim, biotobt, Fiesematenten, Hubrist*live, Deep Locus Records, Jeremias K√ºnstler, Arg./biotobt, Judith van Waterkant, g-edit and slowereastside, Leon Kostner, Tal der Verwirrung, Lou Gatha, live Piano, Gutzeit, Sturm & Drang, Red Robin, Bar 25 Music Mami Wata Friend, Ring & Dorf, Ram Schakl, Sonoro Circus Bros, The Blue Ones*live, Mami Wata Friends, Zirkus Mond","location":{"GPS":{"lat":"52.535005","long":"13.4501257"},"_id":"5cdaaba27262070017b6a581","city":"Berlin","name":"Mensch Meier","address":"Storkower Str. 121, 10407 Berlin","__v":0},"__v":0},{"_id":"5cdae984feaf5b001742b900","date":"20.05.2019","url":"https://www.stall6.ch/programm/detail/sorry-we-are-closed-heute-leider-geschlossen-4908","name":"HEUTE LEIDER GESCHLOSSEN","description":"Ab: 00.00","location":{"GPS":{"lat":"47.3748365","long":"8.5325065"},"_id":"5cd98180c2b6a00018f65511","city":"Z√ºrich","name":"Stall 6","address":"Gessnerallee 8, 8001 Z√ºrich, Schweiz","__v":0},"__v":0},{"_id":"5cdb13b431b53000176dfbbb","date":"16.05.2019","url":"https://www.residentadvisor.net/events/1258890","name":"Thank you Thursday","description":"Lineup: Shveba","location":{"GPS":{"lat":"52.5085628","long":"13.4588592"},"_id":"5cd99ca03b160500179d5180","city":"Berlin","name":"S√ºss War Gestern","address":"W√ºhlischstra√üe 43, 10245 Berlin","__v":0},"__v":0},{"_id":"5cdb13b431b53000176dfbbc","date":"16.05.2019","url":"https://www.residentadvisor.net/events/1250920","name":"S√§ule XXX","description":"Lineup: S√§ule, VTSS, Gabber Eleganza, Neri J","location":{"GPS":{"lat":"52.5111157","long":"13.4408427"},"_id":"5cdaac2f7262070017b6a586","city":"Berlin","name":"Berghain | Panorama Bar | S√§ule","address":"Am Wriezener Bahnhof, 10243 Berlin","__v":0},"__v":0},{"_id":"5cdb13b431b53000176dfbbd","date":"16.05.2019","url":"https://www.residentadvisor.net/events/1250266","name":"Reach Another System with Job Sifre","description":"Lineup: Job Sifre, Jekyl, Daun","location":{"GPS":{"lat":"52.4760543","long":"13.4552053"},"_id":"5cdaac187262070017b6a585","city":"Berlin","name":"Griessmuehle","address":"Sonnenallee 221, 12059 Berlin","__v":0},"__v":0},{"_id":"5cdb13b431b53000176dfbbe","date":"16.05.2019","url":"https://www.residentadvisor.net/events/1209749","name":"Upperberry","description":"Lineup: ABSl, Impure Secretion, Melania, Nastya Muravyova, Ossian, Peryl, Rosa Ansch√ºtz, Templ…ôr, Wallis","location":{"GPS":{"lat":"52.5025046","long":"13.464188"},"_id":"5cdaac6e7262070017b6a588","city":"Berlin","name":"://about blank","address":"Markgrafendamm 24c, 10245 Berlin","__v":0},"__v":0},{"_id":"5cdb13b431b53000176dfbc0","date":"16.05.2019","url":"https://www.residentadvisor.net/events/1261502","name":"Shameless/Limitless: Jae Tyler 'Exercise/Nhpa-2021' Release Show","description":"Lineup: Jae Tyler \"Exercise/NHPA-2021\"","location":{"GPS":{"lat":"52.4806032","long":"13.4306613"},"_id":"5cdaabd27262070017b6a583","city":"Berlin","name":"Loophole","address":"Boddinstra√üe 60, 12053 Berlin","__v":0},"__v":0},{"_id":"5cdb13b431b53000176dfbc1","date":"16.05.2019","url":"https://www.residentadvisor.net/events/1248434","name":"Thursdate: Unum Festival Pre Party with DeWalta, Tobi Neumann b2b Hajdar Berisha & Digby","description":"Lineup: DeWalta, Tobi Neumann b2b Hajdar Berisha, Digby","location":{"GPS":{"lat":"52.5010558","long":"13.4452521"},"_id":"5cd999d83b160500179d5176","city":"Berlin","name":"Watergate","address":"Falckensteinstra√üe 49, 10997 Berlin","__v":0},"__v":0},{"_id":"5cdb13b431b53000176dfbc4","date":"16.05.2019","url":"https://www.residentadvisor.net/events/1232519","name":"Bordel Des Arts - Mayday Mayday - 26h","description":"Lineup: Janus Rasmussen, Gel Abril, Jonas Saalbach, Sven Dohse, Jake The Rapper, DJ Jauche, Mike Book, Daniel Jaeger, Sokool, Casimir von Oettingen, Electronic Elephant, Vom Feisten, Jaxson, Haik, Noah Pred, Moog Conspiracy, Andrew Moore, Damian.Thorn, Didier dlb, Mehr is Mehr, Mias, Jack Jenson, Lee Jokes b2b Cesko, Martin Ka, AzMo, Bud Dancer, Dennis Kuhl, JurieMember, Daensen, Tomislav, Timo Replay, Mona Moore, Vaiana, Mark Mohs","location":{"GPS":{"lat":"52.4974491","long":"13.4629963"},"_id":"5cdaac927262070017b6a58a","city":"Berlin","name":"Salon Zur Wilden Renate","address":"Alt-Stralau 70, 10245 Berlin","__v":0},"__v":0},{"_id":"5cdb13b431b53000176dfbc5","date":"16.05.2019","url":"https://www.residentadvisor.net/events/1257925","name":"Drift Ashore","description":"Lineup: Cerulean, Brian Ring, Rena Volvo, Lusja, Zola, Basco","location":{"GPS":{"lat":"52.4993209","long":"13.4167987"},"_id":"5cda7b5932e07600174f6f6b","city":"Berlin","name":"Paloma","address":"Skalitzer Str. 135, 10999 Berlin","__v":0},"__v":0},{"_id":"5cdb13b431b53000176dfbc7","date":"16.05.2019","url":"https://www.residentadvisor.net/events/1253356","name":"Alien Family","description":"Lineup: Yama, Tommy, Soichi, STEREOCiTI, Shake M, dj masda","location":{"GPS":{"lat":"52.4967723","long":"13.4482481"},"_id":"5cd99ab23b160500179d5178","city":"Berlin","name":"Club der Visionaere","address":"Am Flutgraben, 12435 Berlin","__v":0},"__v":0},{"_id":"5cdb13b431b53000176dfbc8","date":"16.05.2019","url":"https://www.residentadvisor.net/events/1253437","name":"Fluid","description":"Lineup: Sami Zibak, Rojeh, Minor Science, Mor Elian","location":{"GPS":{"lat":"52.5104995","long":"13.4180309"},"_id":"5cda7b3a32e07600174f6f6a","city":"Berlin","name":"OHM","address":"K√∂penicker Str. 70, 10179 Berlin","__v":0},"__v":0},{"_id":"5cdb13b431b53000176dfbc9","date":"16.05.2019","url":"https://www.residentadvisor.net/events/1231196","name":"Electronic.Thursday mit Niklas Fischer","description":"Lineup: Niklas Fischer","location":{"GPS":{"lat":"52.5164332","long":"13.4618348"},"_id":"5cd99bd13b160500179d517f","city":"Berlin","name":"Minimal Bar","address":"Rigaer Str. 31, 10247 Berlin","__v":0},"__v":0},{"_id":"5cdb13b431b53000176dfbcb","date":"16.05.2019","url":"https://www.residentadvisor.net/events/1240876","name":"Planningtorock presents Powerhouse - 2nd Show","description":"Lineup: Planningtorock","location":{"GPS":{"lat":"52.5111157","long":"13.4408427"},"_id":"5cdaac2f7262070017b6a586","city":"Berlin","name":"Berghain | Panorama Bar | S√§ule","address":"Am Wriezener Bahnhof, 10243 Berlin","__v":0},"__v":0},{"_id":"5cdb13b431b53000176dfbcd","date":"16.05.2019","url":"https://www.residentadvisor.net/events/1262926","name":"Der Abend mit Barnet","description":"Lineup: Barnet","location":{"GPS":{"lat":"52.4756705","long":"13.4199459"},"_id":"5cdaab357262070017b6a57b","city":"Berlin","name":"Promenaden Eck","address":"Schillerpromenade 11, 12049 Berlin","__v":0},"__v":0},{"_id":"5cdb610c8a225e0017478121","date":"17.05.2019","url":"https://www.residentadvisor.net/events/1232519","name":"Bordel Des Arts - Mayday Mayday - 26h","description":"Lineup: Janus Rasmussen, Gel Abril, Jonas Saalbach, Sven Dohse, Jake The Rapper, DJ Jauche, Mike Book, Daniel Jaeger, Sokool, Casimir von Oettingen, Electronic Elephant, Vom Feisten, Jaxson, Haik, Noah Pred, Moog Conspiracy, Andrew Moore, Damian.Thorn, Didier dlb, Mehr is Mehr, Mias, Jack Jenson, Lee Jokes b2b Cesko, Martin Ka, AzMo, Bud Dancer, Dennis Kuhl, JurieMember, Daensen, Tomislav, Timo Replay, Mona Moore, Vaiana, Mark Mohs","location":{"GPS":{"lat":"52.4974491","long":"13.4629963"},"_id":"5cdaac927262070017b6a58a","city":"Berlin","name":"Salon Zur Wilden Renate","address":"Alt-Stralau 70, 10245 Berlin","__v":0},"__v":0},{"_id":"5cdb610c8a225e0017478122","date":"17.05.2019","url":"https://www.residentadvisor.net/events/1247778","name":"Kunst & S√ºnde - Next Generation","description":"Lineup: SirStew","location":{"GPS":{"lat":"52.4655752","long":"13.3839535"},"_id":"5cdaab557262070017b6a57d","city":"Berlin","name":"Insomnia","address":"Alt-Tempelhof 17-19, 12099 Berlin","__v":0},"__v":0},{"_id":"5cdb610c8a225e0017478128","date":"17.05.2019","url":"https://www.residentadvisor.net/events/1264591","name":"Bordel Des Arts - Mayday Mayday - All Day Afterhour","description":"Lineup: Janus Rasmussen, Gel Abril, Jonas Saalbach, Sven Dohse, Jake the Rapper, DJ Jauche, Mike Book, Daniel Jaeger, Sokool, Casimir von Oettingen, Electronic Elephant, vom Feisten, Jaxson, Haik, Noah Pred, Moog Conspiracy, Andrew Moore, Damian.Thorn, Didier Dlb, Mehr is Mehr, Mias, Jack Jenson, Lee Jokes b2b Cesko, Martin Ka, AzMo, Bud Dancer, Dennis Kuhl, JurieMember, Daensen, Tomislav, Timo Replay, Mona Moore, Vaiana, Mark Mohs","location":{"GPS":{"lat":"52.4974491","long":"13.4629963"},"_id":"5cdaac927262070017b6a58a","city":"Berlin","name":"Salon Zur Wilden Renate","address":"Alt-Stralau 70, 10245 Berlin","__v":0},"__v":0},{"_id":"5cdb610c8a225e001747812a","date":"17.05.2019","url":"https://www.residentadvisor.net/events/1253386","name":"Acht Jahre Griessmuehle","description":"Lineup: Derrick May, Scan 7, Works Unit, Anetha, H√©ctor Oaks, Baba Stiltz, David Vunk, Subjected, Lokier, Inhalt Der Nacht, Samo DJ, Animistic Beliefs, Franklin de Costa & Mareena, Gian & Stojche, Eliott Litrowski, Vivian Koch, Dietroiter, Handmade, Axiom, Franz Scala, Mejle & ElectroDon, Tham, Acierate, Darwin, Prantel & Forsberg, Esposito & Michael Nadje, Xiorro, scheib","location":{"GPS":{"lat":"52.4760543","long":"13.4552053"},"_id":"5cdaac187262070017b6a585","city":"Berlin","name":"Griessmuehle","address":"Sonnenallee 221, 12059 Berlin","__v":0},"__v":0},{"_id":"5cdb610c8a225e001747812b","date":"17.05.2019","url":"https://www.residentadvisor.net/events/1262927","name":"We Love Dance Moves with Ale Castro & Andi De Luxe","description":"Lineup: House/Techno-Floor, Ale Castro, Old School Hip Hop/80s-Floor, Andi De Luxe","location":{"GPS":{"lat":"52.4756705","long":"13.4199459"},"_id":"5cdaab357262070017b6a57b","city":"Berlin","name":"Promenaden Eck","address":"Schillerpromenade 11, 12049 Berlin","__v":0},"__v":0},{"_id":"5cdb610c8a225e001747812c","date":"17.05.2019","url":"https://www.residentadvisor.net/events/1249092","name":"Buttons - Garden of Fruits","description":"Lineup: Derrick Carter, Robbie Leslie, Kiddy Smile, Tim Taylor, more TBA","location":{"GPS":{"lat":"52.5025046","long":"13.464188"},"_id":"5cdaac6e7262070017b6a588","city":"Berlin","name":"://about blank","address":"Markgrafendamm 24c, 10245 Berlin","__v":0},"__v":0},{"_id":"5cdb610c8a225e001747812d","date":"17.05.2019","url":"https://www.residentadvisor.net/events/1236946","name":"Parallƒìlum with Maksim Dark Live, Ninze, Carbon Live, Gyrl uvm.","description":"Lineup: Maksim Dark, Heimlich Kn√ºller, Carbon, Ninze, Baba The Knife, GYRL, Gina Sabatini, Mr. Propellerhead, sin:port, FrauPfau, Inca Jones, Maurice Mino","location":{"GPS":{"lat":"52.5026749","long":"13.4055995"},"_id":"5cdaac817262070017b6a589","city":"Berlin","name":"Ritter Butzke","address":"Ritterstra√üe 26, 10969 Berlin","__v":0},"__v":0},{"_id":"5cdb610c8a225e001747812e","date":"21.05.2019","url":"https://www.moods.club/de/programm/event/10473/lotus-crash.html","name":"Lotus Crash Carte Blanche CO Streiff","description":"Jazz, Beginn: 20:30 T√ºr√∂ffnung: 19:30 Preis 30.- CHF","location":{"GPS":{"lat":"47.3886794","long":"8.5173859"},"_id":"5cd98180c2b6a00018f6550d","city":"Z√ºrich","name":"Moods","address":"Schiffbauplatz, 8005 Z√ºrich, Schweiz","__v":0},"__v":0},{"_id":"5cdb7624e6df570017e7a40b","date":"20.05.2019","url":"https://www.residentadvisor.net/events/1255827","name":"Electric Monday","description":"Lineup: 20.05, 23.00, Alex Monster, Christ Burstein, Frankie Flowerz","location":{"GPS":{"lat":"52.5112726","long":"13.4147455"},"_id":"5cdaabc77262070017b6a582","city":"Berlin","name":"KitKatClub","address":"K√∂penicker Str. 76, 10179 Berlin","__v":0},"__v":0},{"_id":"5cdb7624e6df570017e7a40c","date":"20.05.2019","url":"https://www.residentadvisor.net/events/1238267","name":"Manic.Monday mit Luis Kill","description":"Lineup: Luis kill","location":{"GPS":{"lat":"52.5164332","long":"13.4618348"},"_id":"5cd99bd13b160500179d517f","city":"Berlin","name":"Minimal Bar","address":"Rigaer Str. 31, 10247 Berlin","__v":0},"__v":0},{"_id":"5cdb7624e6df570017e7a40d","date":"20.05.2019","url":"https://www.residentadvisor.net/events/1258933","name":"Boom'n Bust","description":"Lineup: Desert Sky, Joye Mitarakis b2b Wavenoise, Meriem b2b Modebaku, Argenis Brito","location":{"GPS":{"lat":"52.4967723","long":"13.4482481"},"_id":"5cd99ab23b160500179d5178","city":"Berlin","name":"Club der Visionaere","address":"Am Flutgraben, 12435 Berlin","__v":0},"__v":0},{"_id":"5cdb7624e6df570017e7a40e","date":"20.05.2019","url":"https://www.residentadvisor.net/events/1251009","name":"Hallo Montag - Open Air #04 with Till Von Sein, Pierre-Estienne and More","description":"Lineup: Galleur, Kolja Gerstenberg, Pierre-Estienne, Sara Miller, Till Von Sein","location":{"GPS":{"lat":"52.4977386","long":"13.4495911"},"_id":"5cdaac487262070017b6a587","city":"Berlin","name":"[ips…ô]","address":"Vor dem Schlesischen Tor 2, 10997 Berlin","__v":0},"__v":0},{"_id":"5cdb7624e6df570017e7a40f","date":"20.05.2019","url":"https://www.residentadvisor.net/events/1258892","name":"Monday Mood","description":"Lineup: HM Boy","location":{"GPS":{"lat":"52.5085628","long":"13.4588592"},"_id":"5cd99ca03b160500179d5180","city":"Berlin","name":"S√ºss War Gestern","address":"W√ºhlischstra√üe 43, 10245 Berlin","__v":0},"__v":0},{"_id":"5cdb7624e6df570017e7a410","date":"20.05.2019","url":"https://www.residentadvisor.net/events/1262920","name":"Let's Stay Awake with Deniz Arslan","description":"Lineup: Deniz Arslan","location":{"GPS":{"lat":"52.4756705","long":"13.4199459"},"_id":"5cdaab357262070017b6a57b","city":"Berlin","name":"Promenaden Eck","address":"Schillerpromenade 11, 12049 Berlin","__v":0},"__v":0},{"_id":"5cdb8434d5d3c7001750f1b3","date":"19.05.2019","url":"https://www.residentadvisor.net/events/1257892","name":"GMF Garden Opening","description":"Lineup: Jurassica Parka, Victoria Bacon, Anna Klatsche, TYGON aka Benyamin","location":{"GPS":{"lat":"52.5026749","long":"13.4055995"},"_id":"5cdaac817262070017b6a589","city":"Berlin","name":"Ritter Butzke","address":"Ritterstra√üe 26, 10969 Berlin","__v":0},"__v":0},{"_id":"5cdb8434d5d3c7001750f1b4","date":"19.05.2019","url":"https://www.residentadvisor.net/events/1249092","name":"Buttons - Garden of Fruits","description":"Lineup: Derrick Carter, Robbie Leslie, Kiddy Smile, Tim Taylor, more TBA","location":{"GPS":{"lat":"52.5025046","long":"13.464188"},"_id":"5cdaac6e7262070017b6a588","city":"Berlin","name":"://about blank","address":"Markgrafendamm 24c, 10245 Berlin","__v":0},"__v":0},{"_id":"5cdb8434d5d3c7001750f1b5","date":"19.05.2019","url":"https://www.residentadvisor.net/events/1261822","name":"Hedonistic Social Club: Meet & Mingle","description":"Lineup: Nobody","location":{"GPS":{"lat":"52.4655752","long":"13.3839535"},"_id":"5cdaab557262070017b6a57d","city":"Berlin","name":"Insomnia","address":"Alt-Tempelhof 17-19, 12099 Berlin","__v":0},"__v":0},{"_id":"5cdb8434d5d3c7001750f1b8","date":"19.05.2019","url":"https://www.residentadvisor.net/events/1237939","name":"SEELEN. at ://about Blank with Tobias. *live (Ostgut Ton)","description":"Lineup: Tobias. *live, JANEIN, Neele, Dj Trip Lord, Narciss, Shaleen, Stigmatique","location":{"GPS":{"lat":"52.5025046","long":"13.464188"},"_id":"5cdaac6e7262070017b6a588","city":"Berlin","name":"://about blank","address":"Markgrafendamm 24c, 10245 Berlin","__v":0},"__v":0},{"_id":"5cdb8434d5d3c7001750f1b7","date":"19.05.2019","url":"https://www.residentadvisor.net/events/1265077","name":"Kitty Goldmine","description":"Lineup: Brett Knacksen, Alex Kiefer, Residents","location":{"GPS":{"lat":"52.5112726","long":"13.4147455"},"_id":"5cdaabc77262070017b6a582","city":"Berlin","name":"KitKatClub","address":"K√∂penicker Str. 76, 10179 Berlin","__v":0},"__v":0},{"_id":"5cdb8434d5d3c7001750f1b6","date":"19.05.2019","url":"https://www.residentadvisor.net/events/1253696","name":"Nachspiel Sunday-Night","description":"Lineup: Niko Incravalle, Marcel db","location":{"GPS":{"lat":"52.5112726","long":"13.4147455"},"_id":"5cdaabc77262070017b6a582","city":"Berlin","name":"KitKatClub","address":"K√∂penicker Str. 76, 10179 Berlin","__v":0},"__v":0},{"_id":"5cdb8434d5d3c7001750f1b9","date":"19.05.2019","url":"https://www.residentadvisor.net/events/1229258","name":"Berlin Beach Festival 2019","description":"Lineup: ‚ñµ ALEXANDER SCHIELA, ‚ñµ NATT A REGULAR GUY, ‚ñµ SAME BUT DIFFERENT, ‚ñµ SO WHAT?!","location":{"GPS":{"lat":"52.4978644","long":"13.4515841"},"_id":"5cdaab847262070017b6a57f","city":"Berlin","name":"Badeschiff","address":"Eichenstra√üe 4, 12435 Berlin","__v":0},"__v":0},{"_id":"5cdb8434d5d3c7001750f1ba","date":"19.05.2019","url":"https://www.residentadvisor.net/events/1250925","name":"Klubnacht","description":"Lineup: Surgeon, Adlas, Answer Code Request, DVS1, Eric Cloutier, Francois X, Mike Parker, ROD, Andr√© Galluzzi, Dane, Margaret Dygas, Nick H√∂ppner, Pearson Sound, Ryan Elliott, Tama Sumo","location":{"GPS":{"lat":"52.5111157","long":"13.4408427"},"_id":"5cdaac2f7262070017b6a586","city":"Berlin","name":"Berghain | Panorama Bar | S√§ule","address":"Am Wriezener Bahnhof, 10243 Berlin","__v":0},"__v":0},{"_id":"5cdb8434d5d3c7001750f1bb","date":"19.05.2019","url":"https://www.residentadvisor.net/events/1253386","name":"Acht Jahre Griessmuehle","description":"Lineup: Derrick May, Scan 7, Works Unit, Anetha, H√©ctor Oaks, Baba Stiltz, David Vunk, Subjected, Lokier, Inhalt Der Nacht, Samo DJ, Animistic Beliefs, Franklin de Costa & Mareena, Gian & Stojche, Eliott Litrowski, Vivian Koch, Dietroiter, Handmade, Axiom, Franz Scala, Mejle & ElectroDon, Tham, Acierate, Darwin, Prantel & Forsberg, Esposito & Michael Nadje, Xiorro, scheib","location":{"GPS":{"lat":"52.4760543","long":"13.4552053"},"_id":"5cdaac187262070017b6a585","city":"Berlin","name":"Griessmuehle","address":"Sonnenallee 221, 12059 Berlin","__v":0},"__v":0},{"_id":"5cdb8434d5d3c7001750f1bc","date":"19.05.2019","url":"https://www.residentadvisor.net/events/1262919","name":"Sunday Groove with tba.","description":"Lineup: tba.","location":{"GPS":{"lat":"52.4756705","long":"13.4199459"},"_id":"5cdaab357262070017b6a57b","city":"Berlin","name":"Promenaden Eck","address":"Schillerpromenade 11, 12049 Berlin","__v":0},"__v":0},{"_id":"5cdbb56c06c6ee0017d09ef0","date":"21.05.2019","url":"https://www.residentadvisor.net/events/1248882","name":"Super Tuesday","description":"Lineup: DICK NASTY & RAY BANG","location":{"GPS":{"lat":"52.5072755","long":"13.4526039"},"_id":"5cd99ce73b160500179d5181","city":"Berlin","name":"Cassiopeia","address":"Revaler Str. 99, 10245 Berlin","__v":0},"__v":0},{"_id":"5cdbb56c06c6ee0017d09ef1","date":"21.05.2019","url":"https://www.residentadvisor.net/events/1252715","name":"Tune In","description":"Lineup: Varhat, Foehn & Jerome, Audio Werner","location":{"GPS":{"lat":"52.4967723","long":"13.4482481"},"_id":"5cd99ab23b160500179d5178","city":"Berlin","name":"Club der Visionaere","address":"Am Flutgraben, 12435 Berlin","__v":0},"__v":0},{"_id":"5cdbb56c06c6ee0017d09ef2","date":"21.05.2019","url":"https://www.residentadvisor.net/events/1262922","name":"Irie Tuesdays","description":"Lineup: DJs","location":{"GPS":{"lat":"52.4756705","long":"13.4199459"},"_id":"5cdaab357262070017b6a57b","city":"Berlin","name":"Promenaden Eck","address":"Schillerpromenade 11, 12049 Berlin","__v":0},"__v":0},{"_id":"5cdbb56c06c6ee0017d09ef3","date":"21.05.2019","url":"https://www.residentadvisor.net/events/1238273","name":"go.Play mit Sascha Sander","description":"Lineup: Daniel Dreier, Monika Ross, Christopher Lawrenz, Sascha Sander","location":{"GPS":{"lat":"52.5164332","long":"13.4618348"},"_id":"5cd99bd13b160500179d517f","city":"Berlin","name":"Minimal Bar","address":"Rigaer Str. 31, 10247 Berlin","__v":0},"__v":0},{"_id":"5cdbb56c06c6ee0017d09ef4","date":"21.05.2019","url":"https://www.residentadvisor.net/events/1258894","name":"Tuesday Tales","description":"Lineup: Sparkly Pony","location":{"GPS":{"lat":"52.5085628","long":"13.4588592"},"_id":"5cd99ca03b160500179d5180","city":"Berlin","name":"S√ºss War Gestern","address":"W√ºhlischstra√üe 43, 10245 Berlin","__v":0},"__v":0},{"_id":"5cdbb56c06c6ee0017d09ef5","date":"21.05.2019","url":"https://www.residentadvisor.net/events/1252299","name":"Encore.une.Fois *Techno Edition*","description":"Lineup: ESTHER DUIJN, SVEN VON TH√úLEN, DANIELA LA LUZ *live*, LILLY DEUPR√â","location":{"GPS":{"lat":"52.5072497","long":"13.4490049"},"_id":"5cd99a8d3b160500179d5177","city":"Berlin","name":"Suicide Circus","address":"Warschauer Br√ºcke, Revaler Stra√üe 99 Zugang √ºber, 10245 Berlin","__v":0},"__v":0},{"_id":"5cdc8f646b978d0017716bb1","date":"21.05.2019","url":"https://www.dynamo.ch/event/shokran-thorn-nubia","name":"Shokran / Thorn / Nubia","description":"Werk 21, 19:00 bis 23:30","location":{"GPS":{"lat":"47.3834046","long":"8.5371934"},"_id":"5cd98180c2b6a00018f65505","city":"Z√ºrich","name":"Dynamo","address":"Wasserwerkstrasse 21, 8006 Z√ºrich, Schweiz","__v":0},"__v":0},{"_id":"5cdcb28c1492070017d18f64","date":"18.05.2019","url":"https://www.residentadvisor.net/events/1266528","name":"Saturdays::","description":"Lineup: Alex Cliche, David Delgado, Maki Polne, Jackbox","location":{"GPS":{"lat":"52.4967723","long":"13.4482481"},"_id":"5cd99ab23b160500179d5178","city":"Berlin","name":"Club der Visionaere","address":"Am Flutgraben, 12435 Berlin","__v":0},"__v":0},{"_id":"5cdcb28c1492070017d18f65","date":"22.05.2019","url":"https://www.bogenf.ch/konzerte/aktuell/event/william_fitzsimmons_old_sea_brigade/aktuell/","name":"William Fitzsimmons (US)","description":"Beginn: 20:30 Uhr, Ticket: CHF 45","location":{"GPS":{"lat":"47.3847814","long":"8.5206887"},"_id":"5cd98180c2b6a00018f65504","city":"Z√ºrich","name":"Bogen F","address":"Viaduktstrasse 97, 8005 Z√ºrich, Schweiz","__v":0},"__v":0},{"_id":"5cdcb28c1492070017d18f66","date":"22.05.2019","url":"https://www.moods.club/de/programm/event/10496/jazzbaragge-wednesday-jam.html","name":"JazzBaragge Wednesday Jam ","description":"Jazz / Jam, Beginn: 20:30 T√ºr√∂ffnung: 19:30 Preis 8.- CHF","location":{"GPS":{"lat":"47.3886794","long":"8.5173859"},"_id":"5cd98180c2b6a00018f6550d","city":"Z√ºrich","name":"Moods","address":"Schiffbauplatz, 8005 Z√ºrich, Schweiz","__v":0},"__v":0},{"_id":"5cdcb28c1492070017d18f67","date":"22.05.2019","url":"https://www.stall6.ch/programm/detail/stall-6-aussenbar-geoeffnet-4888","name":"Aussenbar ge√∂ffnet","description":"Ab: 15.00","location":{"GPS":{"lat":"47.3748365","long":"8.5325065"},"_id":"5cd98180c2b6a00018f65511","city":"Z√ºrich","name":"Stall 6","address":"Gessnerallee 8, 8001 Z√ºrich, Schweiz","__v":0},"__v":0},{"_id":"5cdcb28c1492070017d18f68","date":"22.05.2019","url":"https://www.stall6.ch/programm/detail/stall-6-aussenbar-geoeffnet-4888","name":"Aussenbar ge√∂ffnet","description":"Ab: 15.00","location":{"GPS":{"lat":"47.3748365","long":"8.5325065"},"_id":"5cd98180c2b6a00018f65511","city":"Z√ºrich","name":"Stall 6","address":"Gessnerallee 8, 8001 Z√ºrich, Schweiz","__v":0},"__v":0},{"_id":"5cdcb28c1492070017d18f69","date":"22.05.2019","url":"http://gds.fm/programm/marios-kart-cup-im-garten","name":"Marios Kart Cup im Garten","description":"","location":{"GPS":{"lat":"47.3772136","long":"8.5254738"},"_id":"5cd98180c2b6a00018f65510","city":"Z√ºrich","name":"Sender","address":"Kurzgasse 4, 8004 Z√ºrich, Schweiz","__v":0},"__v":0},{"_id":"5cdce748c1ad70001751032a","date":"22.05.2019","url":"https://www.stall6.ch/programm/detail/german-conversation-at-stall-6-4899","name":"German Conversation @ Stall 6","description":"Ab: 18.00","location":{"GPS":{"lat":"47.3748365","long":"8.5325065"},"_id":"5cd98180c2b6a00018f65511","city":"Z√ºrich","name":"Stall 6","address":"Gessnerallee 8, 8001 Z√ºrich, Schweiz","__v":0},"__v":0},{"_id":"5cdd5444adda370017b71f78","date":"21.05.2019","url":"https://www.mehrspur.ch/veranstaltungen/joscha-schraff-trio-jam-night","name":"Joscha Schraff Trio + Sing Along","description":"Jazz, 20H00","location":{"GPS":{"lat":"47.3915258","long":"8.5097185"},"_id":"5cd98180c2b6a00018f6550c","city":"Z√ºrich","name":"Mehrspur","address":"Toni-Areal, F√∂rrlibuckstrasse 109, 8005 Z√ºrich, Schweiz","__v":0},"__v":0},{"_id":"5cdd776cb537cc00171409a6","date":"18.05.2019","url":"https://www.residentadvisor.net/events/1266538","name":"Sisyphos","description":"Lineup: A:lex, Aerodice, Alex Barck, Alxj, Andre Lodemann, Asem Shama, Chak Besh, David Silver, Fabian Dikof, Fidelity Kastrow, Foehn & Jerome, Ingi Visions, Kovi, Kreutziger Kollektiv, Leon Kostner, Louis Dinkgrefe, Luis Junior, Luis Rosenberg, Manuel Moreno, Marcotix, Marian Herzog, Markus Klee, Matthias Vogt, Michael Placke, Nowhere People, Patrik Berg, Por.No, Robbie Akbal, Superlounge, Vom Feisten","location":{"GPS":{"lat":"52.4929551","long":"13.4890514"},"_id":"5cdaabe67262070017b6a584","city":"Berlin","name":"Sisyphos","address":"Hauptstra√üe 15, 10317 Berlin","__v":0},"__v":0},{"_id":"5cdd938c8fc5890017206d42","date":"19.05.2019","url":"https://www.dynamo.ch/event/seelenbazar-live","name":"SEELENBAZAR LIVE","description":"Werk 21, 19:00 bis 22:30","location":{"GPS":{"lat":"47.3834046","long":"8.5371934"},"_id":"5cd98180c2b6a00018f65505","city":"Z√ºrich","name":"Dynamo","address":"Wasserwerkstrasse 21, 8006 Z√ºrich, Schweiz","__v":0},"__v":0},{"_id":"5cdda19c48132300175ea2ad","date":"17.05.2019","url":"https://www.residentadvisor.net/events/1266538","name":"Sisyphos","description":"Lineup: A:lex, Aerodice, Alex Barck, Alxj, Andre Lodemann, Asem Shama, Chak Besh, David Silver, Fabian Dikof, Fidelity Kastrow, Foehn & Jerome, Ingi Visions, Kovi, Kreutziger Kollektiv, Leon Kostner, Louis Dinkgrefe, Luis Junior, Luis Rosenberg, Manuel Moreno, Marcotix, Marian Herzog, Markus Klee, Matthias Vogt, Michael Placke, Nowhere People, Patrik Berg, Por.No, Robbie Akbal, Superlounge, Vom Feisten","location":{"GPS":{"lat":"52.4929551","long":"13.4890514"},"_id":"5cdaabe67262070017b6a584","city":"Berlin","name":"Sisyphos","address":"Hauptstra√üe 15, 10317 Berlin","__v":0},"__v":0}]