[{"GPS":{"lat":"47.3847814","long":"8.5206887"},"_id":"5cd98180c2b6a00018f65504","city":"Zürich","name":"Bogen F","address":"Viaduktstrasse 97, 8005 Zürich, Schweiz","__v":0},{"GPS":{"lat":"47.3834046","long":"8.5371934"},"_id":"5cd98180c2b6a00018f65505","city":"Zürich","name":"Dynamo","address":"Wasserwerkstrasse 21, 8006 Zürich, Schweiz","__v":0},{"GPS":{"lat":"47.3834224","long":"8.5306273"},"_id":"5cd98180c2b6a00018f65506","city":"Zürich","name":"El Lokal","address":"Gessnerallee 11, 8001 Zürich, Schweiz","__v":0},{"GPS":{"lat":"47.3883073","long":"8.517131"},"_id":"5cd98180c2b6a00018f65507","city":"Zürich","name":"Exil","address":"Hardstrasse 245, 8005 Zürich, Schweiz","__v":0},{"GPS":{"lat":"47.3763376","long":"8.5310883"},"_id":"5cd98180c2b6a00018f65508","city":"Zürich","name":"Hafenkneipe","address":"Militärstrasse 12, 8004 Zürich, Schweiz","__v":0},{"GPS":{"lat":"47.3858815","long":"8.5159686"},"_id":"5cd98180c2b6a00018f65509","city":"Zürich","name":"Helsinki","address":"Geroldstrasse 35, 8005 Zürich, Schweiz","__v":0},{"GPS":{"lat":"47.3716427","long":"8.5341738"},"_id":"5cd98180c2b6a00018f6550a","city":"Zürich","name":"Kaufleuten","address":"Pelikanpl. 18, 8001 Zürich, Schweiz","__v":0},{"GPS":{"lat":"47.3663792","long":"8.5445846"},"_id":"5cd98180c2b6a00018f6550b","city":"Zürich","name":"Mascotte","address":"Theaterstrasse 10, 8001 Zürich, Schweiz","__v":0},{"GPS":{"lat":"47.3886794","long":"8.5173859"},"_id":"5cd98180c2b6a00018f6550d","city":"Zürich","name":"Moods","address":"Schiffbauplatz, 8005 Zürich, Schweiz","__v":0},{"GPS":{"lat":"47.3915258","long":"8.5097185"},"_id":"5cd98180c2b6a00018f6550c","city":"Zürich","name":"Mehrspur","address":"Toni-Areal, Förrlibuckstrasse 109, 8005 Zürich, Schweiz","__v":0},{"GPS":{"lat":"47.3581993","long":"8.5204826"},"_id":"5cd98180c2b6a00018f6550e","city":"Zürich","name":"Papiersaal","address":"Kalanderpl. 6, 8045 Zürich, Schweiz","__v":0},{"GPS":{"lat":"47.3435616","long":"8.5336404"},"_id":"5cd98180c2b6a00018f6550f","city":"Zürich","name":"Rote Fabrik","address":"Seestrasse 395, 8038 Zürich, Schweiz","__v":0},{"GPS":{"lat":"47.3772136","long":"8.5254738"},"_id":"5cd98180c2b6a00018f65510","city":"Zürich","name":"Sender","address":"Kurzgasse 4, 8004 Zürich, Schweiz","__v":0},{"GPS":{"lat":"47.3748365","long":"8.5325065"},"_id":"5cd98180c2b6a00018f65511","city":"Zürich","name":"Stall 6","address":"Gessnerallee 8, 8001 Zürich, Schweiz","__v":0},{"GPS":{"lat":"52.5010558","long":"13.4452521"},"_id":"5cd999d83b160500179d5176","city":"Berlin","name":"Watergate","address":"Falckensteinstraße 49, 10997 Berlin","__v":0},{"GPS":{"lat":"52.4967723","long":"13.4482481"},"_id":"5cd99ab23b160500179d5178","city":"Berlin","name":"Club der Visionaere","address":"Am Flutgraben, 12435 Berlin","__v":0},{"GPS":{"lat":"52.5106063","long":"13.421006"},"_id":"5cd99af93b160500179d5179","city":"Berlin","name":"Tresor","address":"Köpenicker Str. 70, 10179 Berlin","__v":0},{"GPS":{"lat":"52.5164332","long":"13.4618348"},"_id":"5cd99bd13b160500179d517f","city":"Berlin","name":"Minimal Bar","address":"Rigaer Str. 31, 10247 Berlin","__v":0},{"GPS":{"lat":"52.5085628","long":"13.4588592"},"_id":"5cd99ca03b160500179d5180","city":"Berlin","name":"Süss War Gestern","address":"Wühlischstraße 43, 10245 Berlin","__v":0},{"GPS":{"lat":"52.5072755","long":"13.4526039"},"_id":"5cd99ce73b160500179d5181","city":"Berlin","name":"Cassiopeia","address":"Revaler Str. 99, 10245 Berlin","__v":0},{"GPS":{"lat":"52.512225","long":"13.4234087"},"_id":"5cda7b6532e07600174f6f6c","city":"Berlin","name":"Kater Blau","address":"Holzmarktstraße 25, 10243 Berlin","__v":0},{"GPS":{"lat":"52.4756705","long":"13.4199459"},"_id":"5cdaab357262070017b6a57b","city":"Berlin","name":"Promenaden Eck","address":"Schillerpromenade 11, 12049 Berlin","__v":0},{"GPS":{"lat":"52.4978644","long":"13.4515841"},"_id":"5cdaab847262070017b6a57f","city":"Berlin","name":"Badeschiff","address":"Eichenstraße 4, 12435 Berlin","__v":0},{"GPS":{"lat":"52.493037","long":"13.3850587"},"_id":"5cdaab907262070017b6a580","city":"Berlin","name":"Zur Klappe","address":"Yorckstraße 2, 10965 Berlin","__v":0},{"GPS":{"lat":"52.535005","long":"13.4501257"},"_id":"5cdaaba27262070017b6a581","city":"Berlin","name":"Mensch Meier","address":"Storkower Str. 121, 10407 Berlin","__v":0},{"GPS":{"lat":"52.5112726","long":"13.4147455"},"_id":"5cdaabc77262070017b6a582","city":"Berlin","name":"KitKatClub","address":"Köpenicker Str. 76, 10179 Berlin","__v":0},{"GPS":{"lat":"52.4760543","long":"13.4552053"},"_id":"5cdaac187262070017b6a585","city":"Berlin","name":"Griessmuehle","address":"Sonnenallee 221, 12059 Berlin","__v":0},{"GPS":{"lat":"52.5111157","long":"13.4408427"},"_id":"5cdaac2f7262070017b6a586","city":"Berlin","name":"Berghain | Panorama Bar | Säule","address":"Am Wriezener Bahnhof, 10243 Berlin","__v":0},{"GPS":{"lat":"52.5025046","long":"13.464188"},"_id":"5cdaac6e7262070017b6a588","city":"Berlin","name":"://about blank","address":"Markgrafendamm 24c, 10245 Berlin","__v":0},{"GPS":{"lat":"52.5026749","long":"13.4055995"},"_id":"5cdaac817262070017b6a589","city":"Berlin","name":"Ritter Butzke","address":"Ritterstraße 26, 10969 Berlin","__v":0},{"GPS":{"lat":"52.4974491","long":"13.4629963"},"_id":"5cdaac927262070017b6a58a","city":"Berlin","name":"Salon Zur Wilden Renate","address":"Alt-Stralau 70, 10245 Berlin","__v":0},{"GPS":{"lat":"52.5072497","long":"13.4490049"},"_id":"5cd99a8d3b160500179d5177","city":"Berlin","name":"Suicide Circus","address":"Warschauer Brücke, Revaler Straße 99 Zugang über, 10245 Berlin","__v":0},{"GPS":{"lat":"52.4655752","long":"13.3839535"},"_id":"5cdaab557262070017b6a57d","city":"Berlin","name":"Insomnia","address":"Alt-Tempelhof 17-19, 12099 Berlin","__v":0},{"GPS":{"lat":"52.4977386","long":"13.4495911"},"_id":"5cdaac487262070017b6a587","city":"Berlin","name":"[ipsə]","address":"Vor dem Schlesischen Tor 2, 10997 Berlin","__v":0},{"GPS":{"lat":"52.4929551","long":"13.4890514"},"_id":"5cdaabe67262070017b6a584","city":"Berlin","name":"Sisyphos","address":"Hauptstraße 15, 10317 Berlin","__v":0},{"GPS":{"lat":"52.4806032","long":"13.4306613"},"_id":"5cdaabd27262070017b6a583","city":"Berlin","name":"Loophole","address":"Boddinstraße 60, 12053 Berlin","__v":0},{"GPS":{"lat":"52.5104995","long":"13.4180309"},"_id":"5cda7b3a32e07600174f6f6a","city":"Berlin","name":"OHM","address":"Köpenicker Str. 70, 10179 Berlin","__v":0},{"GPS":{"lat":"52.4993209","long":"13.4167987"},"_id":"5cda7b5932e07600174f6f6b","city":"Berlin","name":"Paloma","address":"Skalitzer Str. 135, 10999 Berlin","__v":0},{"GPS":{"lat":"52.4756705","long":"13.4199459"},"_id":"5cdaab627262070017b6a57e","city":"Berlin","name":"Solar","address":"Schillerpromenade 11, 12049 Berlin","__v":0}]